[
    {
        "city": "Riyadh", 
        "admin": "Ar Riy\u0101\u1e11", 
        "country": "Saudi Arabia", 
        "population_proper": "4205961", 
        "iso2": "SA", 
        "capital": "primary", 
        "lat": "24.653837", 
        "lng": "46.715683", 
        "population": "4465000"
    }, 
    {
        "city": "Jeddah", 
        "admin": "Makkah al Mukarramah", 
        "country": "Saudi Arabia", 
        "population_proper": "2867446", 
        "iso2": "SA", 
        "capital": "", 
        "lat": "21.542381", 
        "lng": "39.197969", 
        "population": "3012000"
    }, 
    {
        "city": "Ad Damm\u0101m", 
        "admin": "Ash Sharq\u012byah", 
        "country": "Saudi Arabia", 
        "population_proper": "768602", 
        "iso2": "SA", 
        "capital": "admin", 
        "lat": "26.434417", 
        "lng": "50.103263", 
        "population": "2054710"
    }, 
    {
        "city": "Medina", 
        "admin": "Al Mad\u012bnah al Munawwarah", 
        "country": "Saudi Arabia", 
        "population_proper": "1010000", 
        "iso2": "SA", 
        "capital": "admin", 
        "lat": "24.468611", 
        "lng": "39.614167", 
        "population": "1010000"
    }, 
    {
        "city": "A\u0163 \u0162\u0101\u2019if", 
        "admin": "Makkah al Mukarramah", 
        "country": "Saudi Arabia", 
        "population_proper": "530848", 
        "iso2": "SA", 
        "capital": "", 
        "lat": "21.270278", 
        "lng": "40.415833", 
        "population": "657282"
    }, 
    {
        "city": "Al Huf\u016bf", 
        "admin": "Ash Sharq\u012byah", 
        "country": "Saudi Arabia", 
        "population_proper": "400000", 
        "iso2": "SA", 
        "capital": "", 
        "lat": "25.364568", 
        "lng": "49.565323", 
        "population": "637389"
    }, 
    {
        "city": "Al \u1e28illah", 
        "admin": "Ar Riy\u0101\u1e11", 
        "country": "Saudi Arabia", 
        "population_proper": "594605", 
        "iso2": "SA", 
        "capital": "", 
        "lat": "23.489454", 
        "lng": "46.853024", 
        "population": "594605"
    }, 
    {
        "city": "Tab\u016bk", 
        "admin": "Tab\u016bk", 
        "country": "Saudi Arabia", 
        "population_proper": "455450", 
        "iso2": "SA", 
        "capital": "admin", 
        "lat": "28.399804", 
        "lng": "36.571505", 
        "population": "547957"
    }, 
    {
        "city": "Buraydah", 
        "admin": "Al Qa\u015f\u012bm", 
        "country": "Saudi Arabia", 
        "population_proper": "391336", 
        "iso2": "SA", 
        "capital": "admin", 
        "lat": "26.325986", 
        "lng": "43.974966", 
        "population": "398581"
    }, 
    {
        "city": "\u1e28\u0101\u2019il", 
        "admin": "\u1e28\u0101\u2019il", 
        "country": "Saudi Arabia", 
        "population_proper": "385257", 
        "iso2": "SA", 
        "capital": "admin", 
        "lat": "27.521876", 
        "lng": "41.690732", 
        "population": "385257"
    }, 
    {
        "city": "Najr\u0101n", 
        "admin": "Najr\u0101n", 
        "country": "Saudi Arabia", 
        "population_proper": "258573", 
        "iso2": "SA", 
        "capital": "admin", 
        "lat": "17.493259", 
        "lng": "44.127659", 
        "population": "369609"
    }, 
    {
        "city": "Al Qa\u0163\u012bf", 
        "admin": "Ash Sharq\u012byah", 
        "country": "Saudi Arabia", 
        "population_proper": "98259", 
        "iso2": "SA", 
        "capital": "", 
        "lat": "26.520799", 
        "lng": "50.024518", 
        "population": "368892"
    }, 
    {
        "city": "Al Mubarraz", 
        "admin": "Ash Sharq\u012byah", 
        "country": "Saudi Arabia", 
        "population_proper": "290802", 
        "iso2": "SA", 
        "capital": "", 
        "lat": "25.41", 
        "lng": "49.580833", 
        "population": "298562"
    }, 
    {
        "city": "Al Kharj", 
        "admin": "Ar Riy\u0101\u1e11", 
        "country": "Saudi Arabia", 
        "population_proper": "298428", 
        "iso2": "SA", 
        "capital": "", 
        "lat": "24.155406", 
        "lng": "47.334567", 
        "population": "298428"
    }, 
    {
        "city": "Yanbu\u2018 al Ba\u1e29r", 
        "admin": "Al Mad\u012bnah al Munawwarah", 
        "country": "Saudi Arabia", 
        "population_proper": "200161", 
        "iso2": "SA", 
        "capital": "", 
        "lat": "24.089119", 
        "lng": "38.063742", 
        "population": "267590"
    }, 
    {
        "city": "\u1e28afar al B\u0101\u0163in", 
        "admin": "Ash Sharq\u012byah", 
        "country": "Saudi Arabia", 
        "population_proper": "249194", 
        "iso2": "SA", 
        "capital": "", 
        "lat": "28.432791", 
        "lng": "45.970766", 
        "population": "249194"
    }, 
    {
        "city": "Al Jubayl", 
        "admin": "Ash Sharq\u012byah", 
        "country": "Saudi Arabia", 
        "population_proper": "233200", 
        "iso2": "SA", 
        "capital": "", 
        "lat": "27.011222", 
        "lng": "49.658255", 
        "population": "237274"
    }, 
    {
        "city": "\u2018Ar\u2018ar", 
        "admin": "Al \u1e28ud\u016bd ash Sham\u0101l\u012byah", 
        "country": "Saudi Arabia", 
        "population_proper": "148540", 
        "iso2": "SA", 
        "capital": "admin", 
        "lat": "30.97531", 
        "lng": "41.038079", 
        "population": "222016"
    }, 
    {
        "city": "Abh\u0101", 
        "admin": "\u2018As\u012br", 
        "country": "Saudi Arabia", 
        "population_proper": "204719", 
        "iso2": "SA", 
        "capital": "admin", 
        "lat": "18.216389", 
        "lng": "42.505278", 
        "population": "210886"
    }, 
    {
        "city": "J\u0101z\u0101n", 
        "admin": "J\u0101z\u0101n", 
        "country": "Saudi Arabia", 
        "population_proper": "95596", 
        "iso2": "SA", 
        "capital": "admin", 
        "lat": "16.889167", 
        "lng": "42.551111", 
        "population": "105198"
    }, 
    {
        "city": "Dhahran", 
        "admin": "Ash Sharq\u012byah", 
        "country": "Saudi Arabia", 
        "population_proper": "11300", 
        "iso2": "SA", 
        "capital": "", 
        "lat": "26.303239", 
        "lng": "50.135284", 
        "population": "97446"
    }, 
    {
        "city": "Qal\u2018at B\u012bshah", 
        "admin": "", 
        "country": "Saudi Arabia", 
        "population_proper": "81828", 
        "iso2": "SA", 
        "capital": "", 
        "lat": "20.000538", 
        "lng": "42.605203", 
        "population": "88291"
    }, 
    {
        "city": "Raf\u1e29\u0101", 
        "admin": "Al \u1e28ud\u016bd ash Sham\u0101l\u012byah", 
        "country": "Saudi Arabia", 
        "population_proper": "64755", 
        "iso2": "SA", 
        "capital": "", 
        "lat": "29.634248", 
        "lng": "43.519408", 
        "population": "64755"
    }, 
    {
        "city": "Al Wajh", 
        "admin": "Tab\u016bk", 
        "country": "Saudi Arabia", 
        "population_proper": "26636", 
        "iso2": "SA", 
        "capital": "", 
        "lat": "26.245513", 
        "lng": "36.452485", 
        "population": "43237"
    }, 
    {
        "city": "As Sulayyil", 
        "admin": "Ar Riy\u0101\u1e11", 
        "country": "Saudi Arabia", 
        "population_proper": "17620", 
        "iso2": "SA", 
        "capital": "", 
        "lat": "20.460669", 
        "lng": "45.577916", 
        "population": "24097"
    }, 
    {
        "city": "Dawmat al Jandal", 
        "admin": "Al Jawf", 
        "country": "Saudi Arabia", 
        "population_proper": "22583", 
        "iso2": "SA", 
        "capital": "", 
        "lat": "29.808148", 
        "lng": "39.869616", 
        "population": "22583"
    }, 
    {
        "city": "Al Quway\u2018\u012byah", 
        "admin": "Ar Riy\u0101\u1e11", 
        "country": "Saudi Arabia", 
        "population_proper": "8712", 
        "iso2": "SA", 
        "capital": "", 
        "lat": "24.052908", 
        "lng": "45.261472", 
        "population": "8712"
    }, 
    {
        "city": "Al Qunfudhah", 
        "admin": "", 
        "country": "Saudi Arabia", 
        "population_proper": "157", 
        "iso2": "SA", 
        "capital": "", 
        "lat": "19.126389", 
        "lng": "41.078889", 
        "population": "157"
    }, 
    {
        "city": "Sak\u0101k\u0101", 
        "admin": "Al Jawf", 
        "country": "Saudi Arabia", 
        "population_proper": "", 
        "iso2": "SA", 
        "capital": "admin", 
        "lat": "29.969742", 
        "lng": "40.206414", 
        "population": ""
    }, 
    {
        "city": "Mecca", 
        "admin": "Makkah al Mukarramah", 
        "country": "Saudi Arabia", 
        "population_proper": "", 
        "iso2": "SA", 
        "capital": "admin", 
        "lat": "21.42664", 
        "lng": "39.825632", 
        "population": ""
    }, 
    {
        "city": "Al B\u0101\u1e29ah", 
        "admin": "Al B\u0101\u1e29ah", 
        "country": "Saudi Arabia", 
        "population_proper": "", 
        "iso2": "SA", 
        "capital": "admin", 
        "lat": "20.012883", 
        "lng": "41.467671", 
        "population": ""
    }
]